{
  "schedule": [
    {
      "country": "AUS",
      "course": "Royal Queensland GC",
      "course_key": "royal queensland gc",
      "event_id": "2026100",
      "event_name": "BMW Australian PGA Championship",
      "latitude": -27.439,
      "location": "Brisbane, Australia",
      "longitude": 153.092,
      "start_date": "2025-11-27",
      "status": "completed",
      "tour": "euro",
      "winner": "Puig, David (28984)"
    },
    {
      "country": "AUS",
      "course": "Royal Melbourne GC",
      "course_key": "royal melbourne gc",
      "event_id": "2026101",
      "event_name": "Crown Australian Open",
      "latitude": -37.97,
      "location": "Black Rock, Australia",
      "longitude": 145.03,
      "start_date": "2025-12-04",
      "status": "completed",
      "tour": "euro",
      "winner": "Neergaard-Petersen, Rasmus (23841)"
    },
    {
      "country": "RSA",
      "course": "Gary Player CC",
      "course_key": "gary player cc",
      "event_id": "2026102",
      "event_name": "Nedbank Golf Challenge in honour of Gary Player",
      "latitude": -25.339,
      "location": "Sun City, South Africa",
      "longitude": 27.106,
      "start_date": "2025-12-04",
      "status": "completed",
      "tour": "euro",
      "winner": "Reitan, Kristoffer (21407)"
    },
    {
      "country": "RSA",
      "course": "Royal Johannesburg East Course;Royal Johannesburg East Course (Par 70)",
      "course_key": "royal johannesburg east course;royal johannesburg east course (par 70)",
      "event_id": "2026103",
      "event_name": "Alfred Dunhill Championship",
      "latitude": -26.155,
      "location": "Johannesburg, South Africa",
      "longitude": 28.108,
      "start_date": "2025-12-11",
      "status": "completed",
      "tour": "euro",
      "winner": "Schaper, Jayden (26991)"
    },
    {
      "country": "MRI",
      "course": "La Reserve GC",
      "course_key": "la reserve gc",
      "event_id": "2026104",
      "event_name": "AfrAsia Bank Mauritius Open",
      "latitude": -20.486,
      "location": "Bel Ombre, Mauritius",
      "longitude": 57.429,
      "start_date": "2025-12-18",
      "status": "completed",
      "tour": "euro",
      "winner": "Schaper, Jayden (26991)"
    },
    {
      "country": "BAH",
      "course": "The Ocean Club Golf Course at Atlantis",
      "course_key": "097",
      "event_id": "124",
      "event_name": "The Bahamas Golf Classic at Atlantis Paradise Island",
      "latitude": 25.081,
      "location": "Nassau, The Bahamas",
      "longitude": -77.299,
      "start_date": "2026-01-11",
      "status": "upcoming",
      "tour": "kft",
      "winner": "TBD"
    },
    {
      "country": "USA",
      "course": "Waialae Country Club",
      "course_key": "006",
      "event_id": "6",
      "event_name": "Sony Open in Hawaii",
      "latitude": 21.272,
      "location": "Honolulu, HI",
      "longitude": -157.775,
      "start_date": "2026-01-15",
      "status": "upcoming",
      "tour": "pga",
      "winner": "TBD"
    },
    {
      "country": "UAE",
      "course": "Dubai Creek Resort",
      "course_key": "dubai creek resort",
      "event_id": "2026105",
      "event_name": "Dubai Invitational",
      "latitude": 25.243,
      "location": "Dubai, UAE",
      "longitude": 55.334,
      "start_date": "2026-01-15",
      "status": "upcoming",
      "tour": "euro",
      "winner": "TBD"
    },
    {
      "country": "BAH",
      "course": "The Abaco Club on Winding Bay",
      "course_key": "800",
      "event_id": "125",
      "event_name": "The Bahamas Great Abaco Classic at The Abaco Club",
      "latitude": 26.3,
      "location": "Cherokee, Great Abaco, Bahamas",
      "longitude": -77.021,
      "start_date": "2026-01-18",
      "status": "upcoming",
      "tour": "kft",
      "winner": "TBD"
    },
    {
      "country": "USA",
      "course": "Pete Dye Stadium Course;La Quinta Country Club;Nicklaus Tournament Course",
      "course_key": "704;202;233",
      "event_id": "2",
      "event_name": "The American Express",
      "latitude": 33.643,
      "location": "La Quinta, CA",
      "longitude": -116.267,
      "start_date": "2026-01-22",
      "status": "upcoming",
      "tour": "pga",
      "winner": "TBD"
    },
    {
      "country": "UAE",
      "course": "Emirates GC",
      "course_key": "emirates gc",
      "event_id": "2026106",
      "event_name": "Hero Dubai Desert Classic",
      "latitude": 25.263,
      "location": "Dubai, UAE",
      "longitude": 55.297,
      "start_date": "2026-01-22",
      "status": "upcoming",
      "tour": "euro",
      "winner": "TBD"
    },
    {
      "country": "USA",
      "course": "Torrey Pines Golf Course (South Course);Torrey Pines Golf Course (North Course)",
      "course_key": "004;104",
      "event_id": "4",
      "event_name": "Farmers Insurance Open",
      "latitude": 32.905,
      "location": "San Diego, CA",
      "longitude": -117.245,
      "start_date": "2026-01-29",
      "status": "upcoming",
      "tour": "pga",
      "winner": "TBD"
    },
    {
      "country": "BRN",
      "course": "Royal GC",
      "course_key": "royal golf club",
      "event_id": "TBD",
      "event_name": "Bahrain Championship",
      "latitude": 26.092,
      "location": "Al Mazrowiah, Bahrain",
      "longitude": 50.566,
      "start_date": "2026-01-29",
      "status": "upcoming",
      "tour": "euro",
      "winner": "TBD"
    },
    {
      "country": "PAN",
      "course": "Club de Golf de Panama",
      "course_key": "659",
      "event_id": "84",
      "event_name": "The Panama Championship",
      "latitude": 9.084,
      "location": "Corredor Norte, Panama",
      "longitude": -79.474,
      "start_date": "2026-01-29",
      "status": "upcoming",
      "tour": "kft",
      "winner": "TBD"
    },
    {
      "country": "KSA",
      "course": "Riyadh Golf Club",
      "course_key": "27",
      "event_id": "707",
      "event_name": "Riyadh",
      "latitude": 24.959,
      "location": "Riyadh, Saudi Arabia",
      "longitude": 46.576,
      "start_date": "2026-02-04",
      "status": "upcoming",
      "tour": "liv",
      "winner": "TBD"
    },
    {
      "country": "USA",
      "course": "TPC Scottsdale (Stadium Course)",
      "course_key": "510",
      "event_id": "3",
      "event_name": "WM Phoenix Open",
      "latitude": 33.64,
      "location": "Scottsdale, AZ",
      "longitude": -111.91,
      "start_date": "2026-02-05",
      "status": "upcoming",
      "tour": "pga",
      "winner": "TBD"
    },
    {
      "country": "COL",
      "course": "Country Club de Bogota-Lagos",
      "course_key": "735",
      "event_id": "104",
      "event_name": "Astara Golf Championship presented by Mastercard",
      "latitude": 4.71,
      "location": "Bogota, Colombia",
      "longitude": -74.042,
      "start_date": "2026-02-05",
      "status": "upcoming",
      "tour": "kft",
      "winner": "TBD"
    },
    {
      "country": "USA",
      "course": "Pebble Beach Golf Links;Spyglass Hill Golf Course",
      "course_key": "005;205",
      "event_id": "5",
      "event_name": "AT&T Pebble Beach Pro-Am",
      "latitude": 36.569,
      "location": "Pebble Beach, CA",
      "longitude": -121.951,
      "start_date": "2026-02-12",
      "status": "upcoming",
      "tour": "pga",
      "winner": "TBD"
    },
    {
      "country": "AUS",
      "course": "The Grange Golf Club",
      "course_key": "12",
      "event_id": "712",
      "event_name": "Adelaide",
      "latitude": -34.888,
      "location": "Grange, Australia",
      "longitude": 138.5,
      "start_date": "2026-02-12",
      "status": "upcoming",
      "tour": "liv",
      "winner": "TBD"
    },
    {
      "country": "USA",
      "course": "The Riviera Country Club",
      "course_key": "500",
      "event_id": "7",
      "event_name": "The Genesis Invitational",
      "latitude": 34.05,
      "location": "Pacific Palisades, CA",
      "longitude": -118.5,
      "start_date": "2026-02-19",
      "status": "upcoming",
      "tour": "pga",
      "winner": "TBD"
    },
    {
      "country": "KEN",
      "course": "TBC",
      "course_key": "tbc",
      "event_id": "TBD",
      "event_name": "Magical Kenya Open",
      "latitude": 0.0,
      "location": "TBD",
      "longitude": 0.0,
      "start_date": "2026-02-19",
      "status": "upcoming",
      "tour": "euro",
      "winner": "TBD"
    },
    {
      "country": "USA",
      "course": "PGA National Resort (The Champion Course)",
      "course_key": "928",
      "event_id": "10",
      "event_name": "Cognizant Classic",
      "latitude": 26.829,
      "location": "Palm Beach Gardens, FL",
      "longitude": -80.141,
      "start_date": "2026-02-26",
      "status": "upcoming",
      "tour": "pga",
      "winner": "TBD"
    },
    {
      "country": "RSA",
      "course": "Stellenbosch GC",
      "course_key": "stellenbosch gc",
      "event_id": "TBD",
      "event_name": "Investec South African Open Championship",
      "latitude": -33.959,
      "location": "Stellenbosch, South Africa",
      "longitude": 18.85,
      "start_date": "2026-02-26",
      "status": "upcoming",
      "tour": "euro",
      "winner": "TBD"
    },
    {
      "country": "ARG",
      "course": "Jockey Club",
      "course_key": "107",
      "event_id": "170",
      "event_name": "119 Visa Argentina Open presented by Macro",
      "latitude": -34.486,
      "location": "San Isidro, Buenos Aires, Argentina",
      "longitude": -58.533,
      "start_date": "2026-02-26",
      "status": "upcoming",
      "tour": "kft",
      "winner": "TBD"
    },
    {
      "country": "USA",
      "course": "Arnold Palmer's Bay Hill Club & Lodge",
      "course_key": "009",
      "event_id": "9",
      "event_name": "Arnold Palmer Invitational presented by Mastercard",
      "latitude": 28.458,
      "location": "Bay Hill, FL",
      "longitude": -81.511,
      "start_date": "2026-03-05",
      "status": "upcoming",
      "tour": "pga",
      "winner": "TBD"
    },
    {
      "country": "USA",
      "course": "Grand Reserve Golf Club",
      "course_key": "940",
      "event_id": "483",
      "event_name": "Puerto Rico Open",
      "latitude": 18.405,
      "location": "Rio Grande, Puerto Rico",
      "longitude": -65.799,
      "start_date": "2026-03-05",
      "status": "upcoming",
      "tour": "pga",
      "winner": "TBD"
    },
    {
      "country": "CHN",
      "course": "Hong Kong Golf Club",
      "course_key": "20",
      "event_id": "719",
      "event_name": "Hong Kong",
      "latitude": 22.496,
      "location": "Sheung Shui, Hong Kong",
      "longitude": 114.121,
      "start_date": "2026-03-05",
      "status": "upcoming",
      "tour": "liv",
      "winner": "TBD"
    },
    {
      "country": "RSA",
      "course": "Houghton GC",
      "course_key": "houghton gc",
      "event_id": "TBD",
      "event_name": "Joburg Open",
      "latitude": -26.164,
      "location": "Johannesburg, South Africa",
      "longitude": 28.07,
      "start_date": "2026-03-05",
      "status": "upcoming",
      "tour": "euro",
      "winner": "TBD"
    },
    {
      "country": "CHI",
      "course": "Prince of Wales Country Club",
      "course_key": "108",
      "event_id": "107",
      "event_name": "Astara Chile Classic presented by Scotiabank",
      "latitude": -33.434,
      "location": "Santiago, Chile",
      "longitude": -70.566,
      "start_date": "2026-03-05",
      "status": "upcoming",
      "tour": "kft",
      "winner": "TBD"
    },
    {
      "country": "USA",
      "course": "TPC Sawgrass (THE PLAYERS Stadium Course)",
      "course_key": "011",
      "event_id": "11",
      "event_name": "THE PLAYERS Championship",
      "latitude": 30.198,
      "location": "Ponte Vedra Beach, FL",
      "longitude": -81.394,
      "start_date": "2026-03-12",
      "status": "upcoming",
      "tour": "pga",
      "winner": "TBD"
    },
    {
      "country": "SIN",
      "course": "Sentosa Golf Club",
      "course_key": "13",
      "event_id": "713",
      "event_name": "Singapore",
      "latitude": 1.244,
      "location": "Singapore",
      "longitude": 103.829,
      "start_date": "2026-03-12",
      "status": "upcoming",
      "tour": "liv",
      "winner": "TBD"
    },
    {
      "country": "USA",
      "course": "Innisbrook Resort (Copperhead Course)",
      "course_key": "665",
      "event_id": "475",
      "event_name": "Valspar Championship",
      "latitude": 28.11,
      "location": "Palm Harbor, FL",
      "longitude": -82.76,
      "start_date": "2026-03-19",
      "status": "upcoming",
      "tour": "pga",
      "winner": "TBD"
    },
    {
      "country": "RSA",
      "course": "The Club at Steyn City",
      "course_key": "33",
      "event_id": "726",
      "event_name": "South Africa",
      "latitude": -25.972,
      "location": "Midrand, South Africa",
      "longitude": 27.996,
      "start_date": "2026-03-19",
      "status": "upcoming",
      "tour": "liv",
      "winner": "TBD"
    },
    {
      "country": "CHN",
      "course": "Mission Hills",
      "course_key": "mission hills",
      "event_id": "TBD",
      "event_name": "Hainan Classic",
      "latitude": 19.91,
      "location": "Hainan Island, China",
      "longitude": 110.322,
      "start_date": "2026-03-19",
      "status": "upcoming",
      "tour": "euro",
      "winner": "TBD"
    },
    {
      "country": "USA",
      "course": "Memorial Park Golf Course",
      "course_key": "897",
      "event_id": "20",
      "event_name": "Texas Children's Houston Open",
      "latitude": 29.924,
      "location": "Houston, TX",
      "longitude": -95.261,
      "start_date": "2026-03-26",
      "status": "upcoming",
      "tour": "pga",
      "winner": "TBD"
    },
    {
      "country": "IND",
      "course": "TBC",
      "course_key": "tbc",
      "event_id": "TBD",
      "event_name": "Hero Indian Open",
      "latitude": 0.0,
      "location": "TBD",
      "longitude": 0.0,
      "start_date": "2026-03-26",
      "status": "upcoming",
      "tour": "euro",
      "winner": "TBD"
    },
    {
      "country": "USA",
      "course": "The Landings Golf & Athletic Club",
      "course_key": "805",
      "event_id": "128",
      "event_name": "Club Car Championship at The Landings Golf & Athletic Club",
      "latitude": 31.93,
      "location": "Savannah, GA",
      "longitude": -81.058,
      "start_date": "2026-03-26",
      "status": "upcoming",
      "tour": "kft",
      "winner": "TBD"
    },
    {
      "country": "USA",
      "course": "TPC San Antonio (Oaks Course)",
      "course_key": "770",
      "event_id": "41",
      "event_name": "Valero Texas Open",
      "latitude": 29.665,
      "location": "San Antonio, TX",
      "longitude": -98.4,
      "start_date": "2026-04-02",
      "status": "upcoming",
      "tour": "pga",
      "winner": "TBD"
    },
    {
      "country": "USA",
      "course": "Lakewood National Golf Club",
      "course_key": "807",
      "event_id": "129",
      "event_name": "LECOM Suncoast Classic",
      "latitude": 27.437,
      "location": "Lakewood Ranch, FL",
      "longitude": -82.361,
      "start_date": "2026-04-02",
      "status": "upcoming",
      "tour": "kft",
      "winner": "TBD"
    },
    {
      "country": "USA",
      "course": "Augusta National Golf Club",
      "course_key": "014",
      "event_id": "14",
      "event_name": "Masters Tournament",
      "latitude": 33.5,
      "location": "Augusta, GA",
      "longitude": -82.02,
      "start_date": "2026-04-09",
      "status": "upcoming",
      "tour": "pga",
      "winner": "TBD"
    },
    {
      "country": "USA",
      "course": "Harbour Town Golf Links",
      "course_key": "012",
      "event_id": "12",
      "event_name": "RBC Heritage",
      "latitude": 32.136,
      "location": "Hilton Head Island, SC",
      "longitude": -80.81,
      "start_date": "2026-04-16",
      "status": "upcoming",
      "tour": "pga",
      "winner": "TBD"
    },
    {
      "country": "MEX",
      "course": "Club de Golf Chapultepec",
      "course_key": "28",
      "event_id": "709",
      "event_name": "Mexico City",
      "latitude": 19.43,
      "location": "Mexico City, Mexico",
      "longitude": -99.244,
      "start_date": "2026-04-16",
      "status": "upcoming",
      "tour": "liv",
      "winner": "TBD"
    },
    {
      "country": "MEX",
      "course": "PGA Riviera Maya",
      "course_key": "098",
      "event_id": "171",
      "event_name": "Tulum Championship at PGA Riviera Maya",
      "latitude": 20.375,
      "location": "Akumal, Quintana Roo, Mexico",
      "longitude": -87.34,
      "start_date": "2026-04-16",
      "status": "upcoming",
      "tour": "kft",
      "winner": "TBD"
    },
    {
      "country": "USA",
      "course": "TPC Louisiana",
      "course_key": "714",
      "event_id": "18",
      "event_name": "Zurich Classic of New Orleans",
      "latitude": 29.902,
      "location": "Avondale, LA",
      "longitude": -90.19,
      "start_date": "2026-04-23",
      "status": "upcoming",
      "tour": "pga",
      "winner": "TBD"
    },
    {
      "country": "CHN",
      "course": "Shanghai Enhance Anting GC",
      "course_key": "enhance anting gc",
      "event_id": "TBD",
      "event_name": "Volvo China Open",
      "latitude": 31.27,
      "location": "Jiading District, China",
      "longitude": 121.187,
      "start_date": "2026-04-23",
      "status": "upcoming",
      "tour": "euro",
      "winner": "TBD"
    },
    {
      "country": "USA",
      "course": "Trump National Doral (Blue Monster)",
      "course_key": "008",
      "event_id": "556",
      "event_name": "Miami Championship",
      "latitude": 25.813,
      "location": "Miami, FL",
      "longitude": -80.339,
      "start_date": "2026-04-30",
      "status": "upcoming",
      "tour": "pga",
      "winner": "TBD"
    },
    {
      "country": "TUR",
      "course": "TBC",
      "course_key": "tbc",
      "event_id": "TBD",
      "event_name": "Turkish Airlines Open",
      "latitude": 0.0,
      "location": "TBD",
      "longitude": 0.0,
      "start_date": "2026-04-30",
      "status": "upcoming",
      "tour": "euro",
      "winner": "TBD"
    },
    {
      "country": "USA",
      "course": "Quail Hollow Club",
      "course_key": "872",
      "event_id": "480",
      "event_name": "Truist Championship",
      "latitude": 35.116,
      "location": "Charlotte, NC",
      "longitude": -80.842,
      "start_date": "2026-05-07",
      "status": "upcoming",
      "tour": "pga",
      "winner": "TBD"
    },
    {
      "country": "USA",
      "course": "Dunes Golf and Beach Club",
      "course_key": "925",
      "event_id": "553",
      "event_name": "ONEflight Myrtle Beach Classic",
      "latitude": 33.758,
      "location": "Myrtle Beach, SC",
      "longitude": -78.796,
      "start_date": "2026-05-07",
      "status": "upcoming",
      "tour": "pga",
      "winner": "TBD"
    },
    {
      "country": "USA",
      "course": "Trump National Golf Club Washington",
      "course_key": "15",
      "event_id": "715",
      "event_name": "Virginia",
      "latitude": 39.052,
      "location": "Potomac Falls, VA",
      "longitude": -77.347,
      "start_date": "2026-05-07",
      "status": "upcoming",
      "tour": "liv",
      "winner": "TBD"
    },
    {
      "country": "ESP",
      "course": "Real Club de Golf El Prat",
      "course_key": "real club de golf el prat",
      "event_id": "TBD",
      "event_name": "Estrella Damm Catalunya Championship",
      "latitude": 41.572,
      "location": "Terrassa, Spain",
      "longitude": 2.056,
      "start_date": "2026-05-07",
      "status": "upcoming",
      "tour": "euro",
      "winner": "TBD"
    },
    {
      "country": "USA",
      "course": "Aronimink Golf Club",
      "course_key": "773",
      "event_id": "33",
      "event_name": "PGA Championship",
      "latitude": 40.012,
      "location": "Newtown Square, PA",
      "longitude": -75.409,
      "start_date": "2026-05-14",
      "status": "upcoming",
      "tour": "pga",
      "winner": "TBD"
    },
    {
      "country": "USA",
      "course": "The Woodcreek Club",
      "course_key": "110",
      "event_id": "172",
      "event_name": "Colonial Life Charity Classic",
      "latitude": 34.126,
      "location": "Elgin, SC",
      "longitude": -80.821,
      "start_date": "2026-05-14",
      "status": "upcoming",
      "tour": "kft",
      "winner": "TBD"
    },
    {
      "country": "USA",
      "course": "TPC Craig Ranch",
      "course_key": "921",
      "event_id": "19",
      "event_name": "THE CJ CUP Byron Nelson",
      "latitude": 33.14,
      "location": "McKinney, TX",
      "longitude": -96.72,
      "start_date": "2026-05-21",
      "status": "upcoming",
      "tour": "pga",
      "winner": "TBD"
    },
    {
      "country": "BEL",
      "course": "Rinkven International GC",
      "course_key": "rinkven international gc",
      "event_id": "TBD",
      "event_name": "Soudal Open",
      "latitude": 51.281,
      "location": "Schilde, Belgium",
      "longitude": 4.576,
      "start_date": "2026-05-21",
      "status": "upcoming",
      "tour": "euro",
      "winner": "TBD"
    },
    {
      "country": "USA",
      "course": "Holston Hills Country Club",
      "course_key": "109",
      "event_id": "11",
      "event_name": "Visit Knoxville Open",
      "latitude": 35.995,
      "location": "Knoxville, TN",
      "longitude": -83.841,
      "start_date": "2026-05-21",
      "status": "upcoming",
      "tour": "kft",
      "winner": "TBD"
    },
    {
      "country": "USA",
      "course": "Colonial Country Club",
      "course_key": "021",
      "event_id": "21",
      "event_name": "Charles Schwab Challenge",
      "latitude": 32.717,
      "location": "Fort Worth, TX",
      "longitude": -97.373,
      "start_date": "2026-05-28",
      "status": "upcoming",
      "tour": "pga",
      "winner": "TBD"
    },
    {
      "country": "AUT",
      "course": "Kitzbuhel-Schwarzsee GC",
      "course_key": "kitzbuhel-schwarzsee gc",
      "event_id": "TBD",
      "event_name": "Austrian Alpine Open presented by Kitzbuhel Tirol",
      "latitude": 47.459,
      "location": "Kitzbuhel, Austria",
      "longitude": 12.348,
      "start_date": "2026-05-28",
      "status": "upcoming",
      "tour": "euro",
      "winner": "TBD"
    },
    {
      "country": "USA",
      "course": "Raleigh Country Club",
      "course_key": "087",
      "event_id": "48",
      "event_name": "UNC Health Championship",
      "latitude": 35.776,
      "location": "Raleigh, NC",
      "longitude": -78.593,
      "start_date": "2026-05-28",
      "status": "upcoming",
      "tour": "kft",
      "winner": "TBD"
    },
    {
      "country": "USA",
      "course": "Muirfield Village Golf Club",
      "course_key": "023",
      "event_id": "23",
      "event_name": "the Memorial Tournament presented by Workday",
      "latitude": 40.14,
      "location": "Dublin, OH",
      "longitude": -83.141,
      "start_date": "2026-06-04",
      "status": "upcoming",
      "tour": "pga",
      "winner": "TBD"
    },
    {
      "country": "ESP",
      "course": "Real Club Valderrama",
      "course_key": "16",
      "event_id": "716",
      "event_name": "Andalucia",
      "latitude": 36.283,
      "location": "San Roque, Cadiz, Spain",
      "longitude": -5.327,
      "start_date": "2026-06-04",
      "status": "upcoming",
      "tour": "liv",
      "winner": "TBD"
    },
    {
      "country": "NED",
      "course": "The International",
      "course_key": "international",
      "event_id": "TBD",
      "event_name": "KLM Open",
      "latitude": 52.328,
      "location": "Badhoevedorp, Netherlands",
      "longitude": 4.803,
      "start_date": "2026-06-04",
      "status": "upcoming",
      "tour": "euro",
      "winner": "TBD"
    },
    {
      "country": "USA",
      "course": "Thornblade Club;Country Club of Spartanburg",
      "course_key": "678;112",
      "event_id": "37",
      "event_name": "BMW Charity Pro-Am presented by TD SYNNEX",
      "latitude": 34.869,
      "location": "Greer, SC",
      "longitude": -82.265,
      "start_date": "2026-06-04",
      "status": "upcoming",
      "tour": "kft",
      "winner": "TBD"
    },
    {
      "country": "CAN",
      "course": "TPC Toronto at Osprey Valley (North Course)",
      "course_key": "935",
      "event_id": "32",
      "event_name": "RBC Canadian Open",
      "latitude": 43.849,
      "location": "Alton, ON",
      "longitude": -80.043,
      "start_date": "2026-06-11",
      "status": "upcoming",
      "tour": "pga",
      "winner": "TBD"
    },
    {
      "country": "USA",
      "course": "Tascosa Golf Club",
      "course_key": "111",
      "event_id": "173",
      "event_name": "OccuNet Classic presented by Amarillo National Bank",
      "latitude": 35.236,
      "location": "Amarillo, TX",
      "longitude": -101.894,
      "start_date": "2026-06-11",
      "status": "upcoming",
      "tour": "kft",
      "winner": "TBD"
    },
    {
      "country": "USA",
      "course": "Shinnecock Hills Golf Club",
      "course_key": "618",
      "event_id": "26",
      "event_name": "U.S. Open",
      "latitude": 40.894,
      "location": "Southampton, NY",
      "longitude": -72.44,
      "start_date": "2026-06-18",
      "status": "upcoming",
      "tour": "pga",
      "winner": "TBD"
    },
    {
      "country": "USA",
      "course": "TPC River Highlands",
      "course_key": "503",
      "event_id": "34",
      "event_name": "Travelers Championship",
      "latitude": 41.632,
      "location": "Hartford, CT",
      "longitude": -72.639,
      "start_date": "2026-06-25",
      "status": "upcoming",
      "tour": "pga",
      "winner": "TBD"
    },
    {
      "country": "USA",
      "course": "Bayou Oaks at City Park",
      "course_key": "34",
      "event_id": "727",
      "event_name": "Louisiana",
      "latitude": 30.014,
      "location": "New Orleans, LA",
      "longitude": -90.091,
      "start_date": "2026-06-25",
      "status": "upcoming",
      "tour": "liv",
      "winner": "TBD"
    },
    {
      "country": "ITA",
      "course": "TBC",
      "course_key": "tbc",
      "event_id": "TBD",
      "event_name": "Open d'Italia",
      "latitude": 0.0,
      "location": "TBD",
      "longitude": 0.0,
      "start_date": "2026-06-25",
      "status": "upcoming",
      "tour": "euro",
      "winner": "TBD"
    },
    {
      "country": "USA",
      "course": "Panther Creek Country Club",
      "course_key": "055",
      "event_id": "122",
      "event_name": "Memorial Health Championship presented by LRS",
      "latitude": 39.729,
      "location": "Springfield, IL",
      "longitude": -89.712,
      "start_date": "2026-06-25",
      "status": "upcoming",
      "tour": "kft",
      "winner": "TBD"
    },
    {
      "country": "USA",
      "course": "TPC Deere Run",
      "course_key": "669",
      "event_id": "30",
      "event_name": "John Deere Classic",
      "latitude": 41.478,
      "location": "Silvis, IL",
      "longitude": -90.392,
      "start_date": "2026-07-02",
      "status": "upcoming",
      "tour": "pga",
      "winner": "TBD"
    },
    {
      "country": "GER",
      "course": "Golfclub Munchen Eichenried",
      "course_key": "golfclub munchen eichenried",
      "event_id": "TBD",
      "event_name": "BMW International Open",
      "latitude": 48.276,
      "location": "Munich, Germany",
      "longitude": 11.775,
      "start_date": "2026-07-02",
      "status": "upcoming",
      "tour": "euro",
      "winner": "TBD"
    },
    {
      "country": "SCO",
      "course": "The Renaissance Club",
      "course_key": "977",
      "event_id": "541",
      "event_name": "Genesis Scottish Open",
      "latitude": 56.051,
      "location": "North Berwick, Scotland",
      "longitude": -2.809,
      "start_date": "2026-07-09",
      "status": "upcoming",
      "tour": "pga",
      "winner": "TBD"
    },
    {
      "country": "USA",
      "course": "Hurstbourne Country Club",
      "course_key": "934",
      "event_id": "518",
      "event_name": "ISCO Championship",
      "latitude": 38.24,
      "location": "Louisville, KY",
      "longitude": -85.591,
      "start_date": "2026-07-09",
      "status": "upcoming",
      "tour": "pga",
      "winner": "TBD"
    },
    {
      "country": "USA",
      "course": "TPC Colorado",
      "course_key": "090",
      "event_id": "130",
      "event_name": "The Blue Championship",
      "latitude": 40.333,
      "location": "Berthoud, CO",
      "longitude": -105.104,
      "start_date": "2026-07-09",
      "status": "upcoming",
      "tour": "kft",
      "winner": "TBD"
    },
    {
      "country": "ENG",
      "course": "Royal Birkdale Golf Club",
      "course_key": "541",
      "event_id": "100",
      "event_name": "The Open Championship",
      "latitude": 53.622,
      "location": "Southport, England",
      "longitude": -3.032,
      "start_date": "2026-07-16",
      "status": "upcoming",
      "tour": "pga",
      "winner": "TBD"
    },
    {
      "country": "DOM",
      "course": "Puntacana Resort & Club (Corales Golf Course)",
      "course_key": "244",
      "event_id": "522",
      "event_name": "Corales Puntacana Championship",
      "latitude": 18.565,
      "location": "Punta Cana, La Altagracia, Dominican Republic",
      "longitude": -68.34,
      "start_date": "2026-07-16",
      "status": "upcoming",
      "tour": "pga",
      "winner": "TBD"
    },
    {
      "country": "USA",
      "course": "TPC Twin Cities",
      "course_key": "883",
      "event_id": "525",
      "event_name": "3M Open",
      "latitude": 45.177,
      "location": "Blaine, MN",
      "longitude": -93.213,
      "start_date": "2026-07-23",
      "status": "upcoming",
      "tour": "pga",
      "winner": "TBD"
    },
    {
      "country": "ENG",
      "course": "JCB Golf and Country Club",
      "course_key": "24",
      "event_id": "701",
      "event_name": "United Kingdom",
      "latitude": 52.946,
      "location": "Rocester, England",
      "longitude": -1.858,
      "start_date": "2026-07-23",
      "status": "upcoming",
      "tour": "liv",
      "winner": "TBD"
    },
    {
      "country": "USA",
      "course": "The Glen Club",
      "course_key": "082",
      "event_id": "131",
      "event_name": "NV5 Invitational",
      "latitude": 42.09,
      "location": "Glenview, IL",
      "longitude": -87.828,
      "start_date": "2026-07-23",
      "status": "upcoming",
      "tour": "kft",
      "winner": "TBD"
    },
    {
      "country": "USA",
      "course": "Detroit Golf Club",
      "course_key": "876",
      "event_id": "524",
      "event_name": "Rocket Classic",
      "latitude": 42.426,
      "location": "Detroit, MI",
      "longitude": -83.126,
      "start_date": "2026-07-30",
      "status": "upcoming",
      "tour": "pga",
      "winner": "TBD"
    },
    {
      "country": "USA",
      "course": "Ogden Golf & Country Club",
      "course_key": "099",
      "event_id": "26",
      "event_name": "Utah Championship presented by Zions Bank and Intermountain Health",
      "latitude": 41.186,
      "location": "Ogden, UT",
      "longitude": -111.974,
      "start_date": "2026-07-30",
      "status": "upcoming",
      "tour": "kft",
      "winner": "TBD"
    },
    {
      "country": "USA",
      "course": "Sedgefield Country Club",
      "course_key": "752",
      "event_id": "13",
      "event_name": "Wyndham Championship",
      "latitude": 36.014,
      "location": "Greensboro, NC",
      "longitude": -79.887,
      "start_date": "2026-08-06",
      "status": "upcoming",
      "tour": "pga",
      "winner": "TBD"
    },
    {
      "country": "USA",
      "course": "The Club at Indian Creek",
      "course_key": "801",
      "event_id": "123",
      "event_name": "Pinnacle Bank Championship presented by Woodhouse",
      "latitude": 41.295,
      "location": "Elkhorn, NE",
      "longitude": -96.23,
      "start_date": "2026-08-06",
      "status": "upcoming",
      "tour": "kft",
      "winner": "TBD"
    },
    {
      "country": "USA",
      "course": "TPC Southwind",
      "course_key": "513",
      "event_id": "27",
      "event_name": "FedEx St. Jude Championship",
      "latitude": 35.057,
      "location": "Memphis, TN",
      "longitude": -89.779,
      "start_date": "2026-08-13",
      "status": "upcoming",
      "tour": "pga",
      "winner": "TBD"
    },
    {
      "country": "DEN",
      "course": "Great Northern",
      "course_key": "great norrn",
      "event_id": "TBD",
      "event_name": "Danish Golf Championship",
      "latitude": 55.463,
      "location": "Kerteminde, Denmark",
      "longitude": 10.645,
      "start_date": "2026-08-13",
      "status": "upcoming",
      "tour": "euro",
      "winner": "TBD"
    },
    {
      "country": "USA",
      "course": "Hillcrest Country Club",
      "course_key": "027",
      "event_id": "27",
      "event_name": "Albertsons Boise Open presented by Chevron",
      "latitude": 43.586,
      "location": "Boise, ID",
      "longitude": -116.24,
      "start_date": "2026-08-13",
      "status": "upcoming",
      "tour": "kft",
      "winner": "TBD"
    },
    {
      "country": "USA",
      "course": "Bellerive Country Club",
      "course_key": "679",
      "event_id": "28",
      "event_name": "BMW Championship",
      "latitude": 38.66,
      "location": "St. Louis, MO",
      "longitude": -90.483,
      "start_date": "2026-08-20",
      "status": "upcoming",
      "tour": "pga",
      "winner": "TBD"
    },
    {
      "country": "USA",
      "course": "The Club at Chatham Hills",
      "course_key": "31",
      "event_id": "725",
      "event_name": "Indianapolis",
      "latitude": 40.082,
      "location": "Westfield, IN",
      "longitude": -86.139,
      "start_date": "2026-08-20",
      "status": "upcoming",
      "tour": "liv",
      "winner": "TBD"
    },
    {
      "country": "USA",
      "course": "Blue Hills Country Club",
      "course_key": "810",
      "event_id": "100",
      "event_name": "AdventHealth Championship",
      "latitude": 38.899,
      "location": "Kansas City, MO",
      "longitude": -94.602,
      "start_date": "2026-08-20",
      "status": "upcoming",
      "tour": "kft",
      "winner": "TBD"
    },
    {
      "country": "USA",
      "course": "East Lake Golf Club",
      "course_key": "688",
      "event_id": "60",
      "event_name": "TOUR Championship",
      "latitude": 33.743,
      "location": "Atlanta, GA",
      "longitude": -84.303,
      "start_date": "2026-08-27",
      "status": "upcoming",
      "tour": "pga",
      "winner": "TBD"
    },
    {
      "country": "ENG",
      "course": "The Belfry Hotel & Resort",
      "course_key": "brabazon course at the belfry",
      "event_id": "TBD",
      "event_name": "British Masters hosted by Sir Nick Faldo",
      "latitude": 52.554,
      "location": "Sutton Coldfield, England",
      "longitude": -1.734,
      "start_date": "2026-08-27",
      "status": "upcoming",
      "tour": "euro",
      "winner": "TBD"
    },
    {
      "country": "SUI",
      "course": "Crans-sur-Sierre GC",
      "course_key": "crans-sur-sierre gc",
      "event_id": "TBD",
      "event_name": "Omega European Masters",
      "latitude": 46.304,
      "location": "Crans-Montana, Switzerland",
      "longitude": 7.468,
      "start_date": "2026-09-03",
      "status": "upcoming",
      "tour": "euro",
      "winner": "TBD"
    },
    {
      "country": "IRL",
      "course": "Trump International Golf Links & Hotel Ireland",
      "course_key": "trump international golf links & hotel ireland",
      "event_id": "TBD",
      "event_name": "Amgen Irish Open",
      "latitude": 52.746,
      "location": "Doonbeg, Ireland",
      "longitude": -9.503,
      "start_date": "2026-09-10",
      "status": "upcoming",
      "tour": "euro",
      "winner": "TBD"
    },
    {
      "country": "USA",
      "course": "Vanderbilt Legends Club",
      "course_key": "093",
      "event_id": "120",
      "event_name": "Simmons Bank Open for the Snedeker Foundation",
      "latitude": 35.95,
      "location": "Franklin, TN",
      "longitude": -86.843,
      "start_date": "2026-09-10",
      "status": "upcoming",
      "tour": "kft",
      "winner": "TBD"
    },
    {
      "country": "USA",
      "course": "The Cliffs at Walnut Cove",
      "course_key": "942",
      "event_id": "557",
      "event_name": "Biltmore Championship Asheville",
      "latitude": 35.463,
      "location": "Arden, NC",
      "longitude": -82.602,
      "start_date": "2026-09-17",
      "status": "upcoming",
      "tour": "pga",
      "winner": "TBD"
    },
    {
      "country": "ENG",
      "course": "Wentworth Club",
      "course_key": "wentworth golf club",
      "event_id": "TBD",
      "event_name": "BMW PGA Championship",
      "latitude": 51.397,
      "location": "Virgina Water, Surrey, England",
      "longitude": -0.596,
      "start_date": "2026-09-17",
      "status": "upcoming",
      "tour": "euro",
      "winner": "TBD"
    },
    {
      "country": "USA",
      "course": "Ohio State University Golf Club - Scarlet Course",
      "course_key": "676",
      "event_id": "94",
      "event_name": "Nationwide Children's Hospital Championship",
      "latitude": 40.032,
      "location": "Columbus, OH",
      "longitude": -83.053,
      "start_date": "2026-09-17",
      "status": "upcoming",
      "tour": "kft",
      "winner": "TBD"
    },
    {
      "country": "USA",
      "course": "Medinah Country Club (No. 3)",
      "course_key": "348",
      "event_id": "500",
      "event_name": "Presidents Cup",
      "latitude": 41.966,
      "location": "Medinah, IL",
      "longitude": -88.048,
      "start_date": "2026-09-24",
      "status": "upcoming",
      "tour": "pga",
      "winner": "TBD"
    },
    {
      "country": "FRA",
      "course": "Le Golf National",
      "course_key": "le golf national",
      "event_id": "TBD",
      "event_name": "FedEx Open de France",
      "latitude": 48.753,
      "location": "Guyancourt, France",
      "longitude": 2.076,
      "start_date": "2026-09-24",
      "status": "upcoming",
      "tour": "euro",
      "winner": "TBD"
    },
    {
      "country": "USA",
      "course": "Black Desert Resort",
      "course_key": "930",
      "event_id": "554",
      "event_name": "Bank of Utah Championship",
      "latitude": 37.168,
      "location": "Ivins, UT",
      "longitude": -113.653,
      "start_date": "2026-10-01",
      "status": "upcoming",
      "tour": "pga",
      "winner": "TBD"
    },
    {
      "country": "SCO",
      "course": "Old Course St. Andrews;Carnoustie;Kingsbarns Golf Links",
      "course_key": "old course st andrews;carnoustie;kingsbarns golf links",
      "event_id": "TBD",
      "event_name": "Alfred Dunhill Links Championship",
      "latitude": 56.343,
      "location": "Fife, Scotland",
      "longitude": -2.803,
      "start_date": "2026-10-01",
      "status": "upcoming",
      "tour": "euro",
      "winner": "TBD"
    },
    {
      "country": "USA",
      "course": "The Patriot Golf Club",
      "course_key": "096",
      "event_id": "166",
      "event_name": "Compliance Solutions Championship",
      "latitude": 36.239,
      "location": "Owasso, OK",
      "longitude": -95.773,
      "start_date": "2026-10-01",
      "status": "upcoming",
      "tour": "kft",
      "winner": "TBD"
    },
    {
      "country": "JPN",
      "course": "Yokohama Country Club (West Course)",
      "course_key": "936",
      "event_id": "527",
      "event_name": "Baycurrent Classic",
      "latitude": 35.446,
      "location": "Yokohama, Kanagawa, Japan",
      "longitude": 139.549,
      "start_date": "2026-10-08",
      "status": "upcoming",
      "tour": "pga",
      "winner": "TBD"
    },
    {
      "country": "ESP",
      "course": "Club de Campo Villa de Madrid",
      "course_key": "club de campo villa de madrid",
      "event_id": "TBD",
      "event_name": "Open de Espana presented by Madrid",
      "latitude": 40.452,
      "location": "Madrid, Spain",
      "longitude": -3.753,
      "start_date": "2026-10-08",
      "status": "upcoming",
      "tour": "euro",
      "winner": "TBD"
    },
    {
      "country": "USA",
      "course": "The Federal Club",
      "course_key": "113",
      "event_id": "45",
      "event_name": "Korn Ferry Tour Championship presented by Virginia's Richmond Region",
      "latitude": 37.765,
      "location": "Glen Allen, VA",
      "longitude": -77.598,
      "start_date": "2026-10-08",
      "status": "upcoming",
      "tour": "kft",
      "winner": "TBD"
    },
    {
      "country": "IND",
      "course": "Delhi GC",
      "course_key": "delhi gc",
      "event_id": "TBD",
      "event_name": "DP World India Championship",
      "latitude": 28.6,
      "location": "Delhi, India",
      "longitude": 77.238,
      "start_date": "2026-10-15",
      "status": "upcoming",
      "tour": "euro",
      "winner": "TBD"
    },
    {
      "country": "BER",
      "course": "Port Royal Golf Course",
      "course_key": "765",
      "event_id": "528",
      "event_name": "Butterfield Bermuda Championship",
      "latitude": 32.261,
      "location": "Southampton, Bermuda",
      "longitude": -64.874,
      "start_date": "2026-10-22",
      "status": "upcoming",
      "tour": "pga",
      "winner": "TBD"
    },
    {
      "country": "KOR",
      "course": "TBC",
      "course_key": "tbc",
      "event_id": "TBD",
      "event_name": "Genesis Championship",
      "latitude": 0.0,
      "location": "TBD",
      "longitude": 0.0,
      "start_date": "2026-10-22",
      "status": "upcoming",
      "tour": "euro",
      "winner": "TBD"
    },
    {
      "country": "MEX",
      "course": "Vidanta Vallarta",
      "course_key": "978",
      "event_id": "540",
      "event_name": "VidantaWorld Mexico Open",
      "latitude": 20.7,
      "location": "Vallarta, Mexico",
      "longitude": -105.3,
      "start_date": "2026-10-29",
      "status": "upcoming",
      "tour": "pga",
      "winner": "TBD"
    },
    {
      "country": "MEX",
      "course": "El Cardonal at Diamante",
      "course_key": "919",
      "event_id": "457",
      "event_name": "World Wide Technology Championship",
      "latitude": 22.901,
      "location": "Cabo San Lucas, Mexico",
      "longitude": -109.985,
      "start_date": "2026-11-05",
      "status": "upcoming",
      "tour": "pga",
      "winner": "TBD"
    },
    {
      "country": "UAE",
      "course": "Yas Links",
      "course_key": "yas links",
      "event_id": "TBD",
      "event_name": "Abu Dhabi Championship",
      "latitude": 24.5,
      "location": "Abu Dhabi, UAE",
      "longitude": 54.6,
      "start_date": "2026-11-05",
      "status": "upcoming",
      "tour": "euro",
      "winner": "TBD"
    },
    {
      "country": "USA",
      "course": "Omni Barton Creek Resort & Spa (Fazio Canyons Course)",
      "course_key": "943",
      "event_id": "558",
      "event_name": "Good Good Championship",
      "latitude": 30.271,
      "location": "Austin, TX",
      "longitude": -97.876,
      "start_date": "2026-11-12",
      "status": "upcoming",
      "tour": "pga",
      "winner": "TBD"
    },
    {
      "country": "UAE",
      "course": "Earth Course",
      "course_key": "jumeirah golf estates",
      "event_id": "TBD",
      "event_name": "DP World Tour Championship",
      "latitude": 25.014,
      "location": "Dubai, UAE",
      "longitude": 55.184,
      "start_date": "2026-11-12",
      "status": "upcoming",
      "tour": "euro",
      "winner": "TBD"
    },
    {
      "country": "USA",
      "course": "Sea Island Golf Club (Seaside Course);Sea Island Golf Club (Plantation Course)",
      "course_key": "776;889",
      "event_id": "493",
      "event_name": "The RSM Classic",
      "latitude": 31.202,
      "location": "Sea Island, GA",
      "longitude": -81.332,
      "start_date": "2026-11-19",
      "status": "upcoming",
      "tour": "pga",
      "winner": "TBD"
    },
    {
      "country": "BAH",
      "course": "Albany GC",
      "course_key": "232",
      "event_id": "478",
      "event_name": "Hero World Challenge",
      "latitude": 25.004,
      "location": "Albany, The Bahamas",
      "longitude": -77.509,
      "start_date": "2026-12-03",
      "status": "upcoming",
      "tour": "pga",
      "winner": "TBD"
    }
  ],
  "season": 2026,
  "tour": "all",
  "upcoming_only": "no"
}
