{
  "current_season": 2025,
  "schedule": [
    {
      "course": "Plantation Course at Kapalua",
      "course_key": "656",
      "event_id": 16,
      "event_name": "The Sentry",
      "latitude": 21.001,
      "location": "Kapalua, HI",
      "longitude": -156.654,
      "start_date": "2025-01-02"
    },
    {
      "course": "Waialae Country Club",
      "course_key": "006",
      "event_id": 6,
      "event_name": "Sony Open in Hawaii",
      "latitude": 21.272,
      "location": "Honolulu, HI",
      "longitude": -157.775,
      "start_date": "2025-01-09"
    },
    {
      "course": "Pete Dye Stadium Course;La Quinta Country Club;Nicklaus Tournament Course",
      "course_key": "704;202;233",
      "event_id": 2,
      "event_name": "The American Express",
      "latitude": 33.643,
      "location": "La Quinta, CA",
      "longitude": -116.267,
      "start_date": "2025-01-16"
    },
    {
      "course": "Torrey Pines Golf Course (South Course);Torrey Pines Golf Course (North Course)",
      "course_key": "004;104",
      "event_id": 4,
      "event_name": "Farmers Insurance Open",
      "latitude": 32.905,
      "location": "San Diego, CA",
      "longitude": -117.245,
      "start_date": "2025-01-22"
    },
    {
      "course": "Pebble Beach Golf Links;Spyglass Hill Golf Course",
      "course_key": "005;205",
      "event_id": 5,
      "event_name": "AT&T Pebble Beach Pro-Am",
      "latitude": 36.569,
      "location": "Pebble Beach, CA",
      "longitude": -121.951,
      "start_date": "2025-01-30"
    },
    {
      "course": "TPC Scottsdale (Stadium Course)",
      "course_key": "510",
      "event_id": 3,
      "event_name": "WM Phoenix Open",
      "latitude": 33.64,
      "location": "Scottsdale, AZ",
      "longitude": -111.91,
      "start_date": "2025-02-06"
    },
    {
      "course": "Torrey Pines Golf Course (South Course)",
      "course_key": "004",
      "event_id": 7,
      "event_name": "The Genesis Invitational",
      "latitude": 32.905,
      "location": "San Diego, CA",
      "longitude": -117.245,
      "start_date": "2025-02-13"
    },
    {
      "course": "VidantaWorld",
      "course_key": "978",
      "event_id": 540,
      "event_name": "Mexico Open at VidantaWorld",
      "latitude": 20.7,
      "location": "Vallarta, Mexico",
      "longitude": -105.3,
      "start_date": "2025-02-20"
    },
    {
      "course": "PGA National Resort (The Champion Course)",
      "course_key": "928",
      "event_id": 10,
      "event_name": "Cognizant Classic in The Palm Beaches",
      "latitude": 26.829,
      "location": "Palm Beach Gardens, FL",
      "longitude": -80.141,
      "start_date": "2025-02-27"
    },
    {
      "course": "Arnold Palmer's Bay Hill Club & Lodge",
      "course_key": "009",
      "event_id": 9,
      "event_name": "Arnold Palmer Invitational presented by Mastercard",
      "latitude": 28.458,
      "location": "Bay Hill, FL",
      "longitude": -81.511,
      "start_date": "2025-03-06"
    },
    {
      "course": "Grand Reserve Golf Club",
      "course_key": "742",
      "event_id": 483,
      "event_name": "Puerto Rico Open",
      "latitude": 18.405,
      "location": "Rio Grande, Puerto Rico",
      "longitude": -65.799,
      "start_date": "2025-03-06"
    },
    {
      "course": "TPC Sawgrass (THE PLAYERS Stadium Course)",
      "course_key": "011",
      "event_id": 11,
      "event_name": "THE PLAYERS Championship",
      "latitude": 30.198,
      "location": "Ponte Vedra Beach, FL",
      "longitude": -81.394,
      "start_date": "2025-03-13"
    },
    {
      "course": "Innisbrook Resort (Copperhead Course)",
      "course_key": "665",
      "event_id": 475,
      "event_name": "Valspar Championship",
      "latitude": 28.11,
      "location": "Palm Harbor, FL",
      "longitude": -82.76,
      "start_date": "2025-03-20"
    },
    {
      "course": "Memorial Park Golf Course",
      "course_key": "897",
      "event_id": 20,
      "event_name": "Texas Children's Houston Open",
      "latitude": 29.924,
      "location": "Houston, TX",
      "longitude": -95.261,
      "start_date": "2025-03-27"
    },
    {
      "course": "TPC San Antonio (Oaks Course)",
      "course_key": "770",
      "event_id": 41,
      "event_name": "Valero Texas Open",
      "latitude": 29.665,
      "location": "San Antonio, TX",
      "longitude": -98.4,
      "start_date": "2025-04-03"
    },
    {
      "course": "Augusta National Golf Club",
      "course_key": "014",
      "event_id": 14,
      "event_name": "Masters Tournament",
      "latitude": 33.5,
      "location": "Augusta, GA",
      "longitude": -82.02,
      "start_date": "2025-04-10"
    },
    {
      "course": "Harbour Town Golf Links",
      "course_key": "012",
      "event_id": 12,
      "event_name": "RBC Heritage",
      "latitude": 32.136,
      "location": "Hilton Head Island, SC",
      "longitude": -80.81,
      "start_date": "2025-04-17"
    },
    {
      "course": "Puntacana Resort & Club (Corales Golf Course)",
      "course_key": "244",
      "event_id": 522,
      "event_name": "Corales Puntacana Championship",
      "latitude": 18.565,
      "location": "Punta Cana, La Altagracia, Dominican Republic",
      "longitude": -68.34,
      "start_date": "2025-04-17"
    },
    {
      "course": "TPC Louisiana",
      "course_key": "714",
      "event_id": 18,
      "event_name": "Zurich Classic of New Orleans",
      "latitude": 29.902,
      "location": "Avondale, LA",
      "longitude": -90.19,
      "start_date": "2025-04-24"
    },
    {
      "course": "TPC Craig Ranch",
      "course_key": "921",
      "event_id": 19,
      "event_name": "THE CJ CUP Byron Nelson",
      "latitude": 33.14,
      "location": "McKinney, TX",
      "longitude": -96.72,
      "start_date": "2025-05-01"
    },
    {
      "course": "The Philadelphia Cricket Club (Wissahickon Course)",
      "course_key": "379",
      "event_id": 480,
      "event_name": "Truist Championship",
      "latitude": 40.109,
      "location": "Flourtown, PA",
      "longitude": -75.224,
      "start_date": "2025-05-08"
    },
    {
      "course": "Dunes Golf and Beach Club",
      "course_key": "925",
      "event_id": 553,
      "event_name": "ONEflight Myrtle Beach Classic",
      "latitude": 33.758,
      "location": "Myrtle Beach, SC",
      "longitude": -78.796,
      "start_date": "2025-05-08"
    },
    {
      "course": "Quail Hollow Club",
      "course_key": "241",
      "event_id": 33,
      "event_name": "PGA Championship",
      "latitude": 35.116,
      "location": "Charlotte, NC",
      "longitude": -80.842,
      "start_date": "2025-05-15"
    },
    {
      "course": "Colonial Country Club",
      "course_key": "021",
      "event_id": 21,
      "event_name": "Charles Schwab Challenge",
      "latitude": 32.717,
      "location": "Fort Worth, TX",
      "longitude": -97.373,
      "start_date": "2025-05-22"
    },
    {
      "course": "Muirfield Village Golf Club",
      "course_key": "023",
      "event_id": 23,
      "event_name": "the Memorial Tournament presented by Workday",
      "latitude": 40.141,
      "location": "Dublin, OH",
      "longitude": -83.141,
      "start_date": "2025-05-29"
    },
    {
      "course": "TPC Toronto at Osprey Valley (North Course)",
      "course_key": "935",
      "event_id": 32,
      "event_name": "RBC Canadian Open",
      "latitude": 43.849,
      "location": "Alton, ON",
      "longitude": -80.043,
      "start_date": "2025-06-05"
    },
    {
      "course": "Oakmont Country Club",
      "course_key": "608",
      "event_id": 26,
      "event_name": "U.S. Open",
      "latitude": 40.526,
      "location": "Oakmont, PA",
      "longitude": -79.827,
      "start_date": "2025-06-12"
    },
    {
      "course": "TPC River Highlands",
      "course_key": "503",
      "event_id": 34,
      "event_name": "Travelers Championship",
      "latitude": 41.632,
      "location": "Hartford, CT",
      "longitude": -72.639,
      "start_date": "2025-06-19"
    },
    {
      "course": "Detroit Golf Club",
      "course_key": "876",
      "event_id": 524,
      "event_name": "Rocket Classic",
      "latitude": 42.426,
      "location": "Detroit, MI",
      "longitude": -83.126,
      "start_date": "2025-06-26"
    },
    {
      "course": "TPC Deere Run",
      "course_key": "669",
      "event_id": 30,
      "event_name": "John Deere Classic",
      "latitude": 41.478,
      "location": "Silvis, IL",
      "longitude": -90.392,
      "start_date": "2025-07-03"
    },
    {
      "course": "Hurstbourne Country Club (Championship Course)",
      "course_key": "934",
      "event_id": 518,
      "event_name": "ISCO Championship",
      "latitude": 38.24,
      "location": "Louisville, KY",
      "longitude": -85.591,
      "start_date": "2025-07-10"
    },
    {
      "course": "The Renaissance Club",
      "course_key": "977",
      "event_id": 541,
      "event_name": "Genesis Scottish Open",
      "latitude": 56.051,
      "location": "North Berwick, Scotland",
      "longitude": -2.809,
      "start_date": "2025-07-10"
    },
    {
      "course": "Royal Portrush Golf Club",
      "course_key": "885",
      "event_id": 100,
      "event_name": "The Open Championship",
      "latitude": 55.2,
      "location": "Portrush, United Kingdom",
      "longitude": -6.636,
      "start_date": "2025-07-17"
    },
    {
      "course": "Tahoe Mountain Club (Old Greenwood)",
      "course_key": "931",
      "event_id": 472,
      "event_name": "Barracuda Championship",
      "latitude": 39.345,
      "location": "Truckee, CA",
      "longitude": -120.143,
      "start_date": "2025-07-17"
    },
    {
      "course": "TPC Twin Cities",
      "course_key": "883",
      "event_id": 525,
      "event_name": "3M Open",
      "latitude": 45.177,
      "location": "Blaine, MN",
      "longitude": -93.213,
      "start_date": "2025-07-24"
    },
    {
      "course": "Sedgefield Country Club",
      "course_key": "752",
      "event_id": 13,
      "event_name": "Wyndham Championship",
      "latitude": 36.014,
      "location": "Greensboro, NC",
      "longitude": -79.887,
      "start_date": "2025-07-31"
    },
    {
      "course": "TPC Southwind",
      "course_key": "513",
      "event_id": 27,
      "event_name": "FedEx St. Jude Championship",
      "latitude": 35.057,
      "location": "Memphis, TN",
      "longitude": -89.779,
      "start_date": "2025-08-07"
    },
    {
      "course": "Caves Valley Golf Club",
      "course_key": "882",
      "event_id": 28,
      "event_name": "BMW Championship",
      "latitude": 39.452,
      "location": "Owings Mills, MD",
      "longitude": -76.744,
      "start_date": "2025-08-14"
    },
    {
      "course": "East Lake Golf Club",
      "course_key": "933",
      "event_id": 60,
      "event_name": "TOUR Championship",
      "latitude": 33.743,
      "location": "Atlanta, GA",
      "longitude": -84.303,
      "start_date": "2025-08-21"
    },
    {
      "course": "Silverado Resort (North Course)",
      "course_key": "926",
      "event_id": 464,
      "event_name": "Procore Championship",
      "latitude": 38.349,
      "location": "Napa County, CA",
      "longitude": -122.264,
      "start_date": "2025-09-11"
    },
    {
      "course": "TBD",
      "course_key": "",
      "event_id": 468,
      "event_name": "Ryder Cup",
      "latitude": "",
      "location": "",
      "longitude": "",
      "start_date": "2025-09-25"
    },
    {
      "course": "The Country Club of Jackson",
      "course_key": "746",
      "event_id": 54,
      "event_name": "Sanderson Farms Championship",
      "latitude": 32.397,
      "location": "Jackson, MS",
      "longitude": -90.098,
      "start_date": "2025-10-02"
    },
    {
      "course": "Yokohama Country Club",
      "course_key": "936",
      "event_id": 527,
      "event_name": "Baycurrent Classic",
      "latitude": 35.446,
      "location": "Yokohama, Kanagawa, Japan",
      "longitude": 139.549,
      "start_date": "2025-10-09"
    },
    {
      "course": "Black Desert Resort",
      "course_key": "930",
      "event_id": 554,
      "event_name": "Bank of Utah Championship",
      "latitude": 37.168,
      "location": "Ivins, UT",
      "longitude": -113.653,
      "start_date": "2025-10-23"
    },
    {
      "course": "El Cardonal at Diamante",
      "course_key": "919",
      "event_id": 457,
      "event_name": "World Wide Technology Championship",
      "latitude": 22.901,
      "location": "Cabo San Lucas, Mexico",
      "longitude": -109.985,
      "start_date": "2025-11-06"
    },
    {
      "course": "Port Royal Golf Course",
      "course_key": "765",
      "event_id": 528,
      "event_name": "Butterfield Bermuda Championship",
      "latitude": 32.261,
      "location": "Southampton, Bermuda",
      "longitude": -64.874,
      "start_date": "2025-11-13"
    },
    {
      "course": "Sea Island Golf Club (Seaside Course);Sea Island Golf Club (Plantation Course)",
      "course_key": "776;889",
      "event_id": 493,
      "event_name": "The RSM Classic",
      "latitude": 31.202,
      "location": "Sea Island, GA",
      "longitude": -81.332,
      "start_date": "2025-11-20"
    },
    {
      "course": "Albany GC",
      "course_key": "232",
      "event_id": 478,
      "event_name": "Hero World Challenge",
      "latitude": 25.004,
      "location": "Albany, The Bahamas",
      "longitude": -77.509,
      "start_date": "2025-12-04"
    }
  ],
  "tour": "pga"
}